{"results": [{"address_components": [{"long_name": "4406", "short_name": "4406", "types": ["street_number"]}, {"long_name": "Wellington Boulevard", "short_name": "Wellington Blvd", "types": ["route"]}, {"long_name": "Alexandria", "short_name": "Alexandria", "types": ["locality", "political"]}, {"long_name": "Rapides Parish", "short_name": "Rapides Parish", "types": ["administrative_area_level_2", "political"]}, {"long_name": "Louisiana", "short_name": "LA", "types": ["administrative_area_level_1", "political"]}, {"long_name": "United States", "short_name": "US", "types": ["country", "political"]}, {"long_name": "71303", "short_name": "71303", "types": ["postal_code"]}, {"long_name": "2832", "short_name": "2832", "types": ["postal_code_suffix"]}], "formatted_address": "4406 Wellington Blvd, Alexandria, LA 71303, USA", "geometry": {"bounds": {"northeast": {"lat": 31.28207, "lng": -92.48622449999999}, "southwest": {"lat": 31.2817081, "lng": -92.4866085}}, "location": {"lat": 31.2819089, "lng": -92.4863446}, "location_type": "ROOFTOP", "viewport": {"northeast": {"lat": 31.2832380302915, "lng": -92.4850066197085}, "southwest": {"lat": 31.2805400697085, "lng": -92.4877045802915}}}, "place_id": "ChIJDUh1yh21OoYRU6clFO4NSX8", "types": ["premise"]}], "status": "OK"}